 {
  "pontos_de_coleta":
  [

   { "id":1, 
     "nome": "Ponto de Coleta de Lixo Eletrônico - PROPAM",
     "logradouro": "Rua Rad. Ubaldo Ferreira",
     "numero": 20,
     "bairro": "Castelo",
     "cidade": "Belo Horizonte",
     "estado": "MG",
     "cep": "31330-294",
     "pais": "Brasil",
     "latitude": -19.86966,
     "longitude": -43.99367
    },
    
   {
     "id":2,
     "nome": "URPV - Unidade de Recebimento de Pequenos Volumes",
     "logradouro": "Rua flôr de Índio",
     "numero": 105,
     "bairro": "Liberdade",
     "cidade": "Belo Horizonte",
     "estado": "MG",
     "cep": "31270-215",
     "pais": "Brasil",
     "latitude": -19.85740,
     "longitude": -43.95612
   },

   { 
     "id":3,
     "nome": "MG Recicla Reciclagem de Lixo Eletrônico",
     "logradouro": "Rua Sasaré",
     "numero": 47,
     "bairro": "Jardinópolis",
     "cidade": "Belo Horizonte",
     "estado": "MG",
     "cep": "30512-010",
     "pais": "Brasil",
     "latitude": -19.87895,
     "longitude": -44.01169
   },

   {
     "id":4,
     "nome": "Ecoponto E-MILE de Lixo Eletrônico (CTRL+Play)",
     "logradouro": "Rua Bernardo Guimarães",
     "numero": 3000,
     "bairro": "Santo Agostinho",
     "cidade": "Belo Horizonte",
     "estado": "MG",
     "cep": "30140-083",
     "pais": "Brasil",
     "latitude": -19.87761,
     "longitude": -43.95658
   },

   {
     "id":5,
     "nome": "Lithium Informática - Ecoponto E-MILE - Descarte Lixo Eletrônico",
     "logradouro": "Rua Padre Eustáquio",
     "numero": 443,
     "bairro": "Carlos Prates",
     "cidade": "Belo Horizonte",
     "estado": "MG",
     "cep": "30710-580",
     "pais": "Brasil",
     "latitude": -19.85910,
     "longitude": -43.95939
   }
  ]
 }